{"erp_gantries": [{"name": "Victoria Street ", "id": 1, "lat": 1.30048971651456, "lon": 103.855723720646}, {"name": "Nicoll Highway ", "id": 2, "lat": 1.2997619069211128, "lon": 103.86197962236814}, {"name": "Eu Tong Sen Street ", "id": 3, "lat": 1.28096603435063, "lon": 103.840499538657}, {"name": "Orchard Link ", "id": 4, "lat": 1.30053587537632, "lon": 103.834915244616}, {"name": "Lim Teck Kim Road ", "id": 5, "lat": 1.27348399548328, "lon": 103.84187672392}, {"name": "Anson Road ", "id": 6, "lat": 1.27317443818723, "lon": 103.844315362385}, {"name": "Tanjong Pagar Road ", "id": 7, "lat": 1.27297680515358, "lon": 103.843088804269}, {"name": "Bencoolen Street ", "id": 9, "lat": 1.30288451574635, "lon": 103.853607815326}, {"name": "Queen Street ", "id": 10, "lat": 1.30130150713318, "lon": 103.8549538293}, {"name": "North Bridge Road ", "id": 11, "lat": 1.29968660774609, "lon": 103.856513020817}, {"name": "Oxley Road ", "id": 12, "lat": 1.29917050409445, "lon": 103.841360584573}, {"name": "Orchard Road ", "id": 13, "lat": 1.30472626154639, "lon": 103.832410370474}, {"name": "Orchard Turn ", "id": 14, "lat": 1.30335266372165, "lon": 103.832493229636}, {"name": "Killiney Road ", "id": 15, "lat": 1.29937578008594, "lon": 103.839716951288}, {"name": "Beach Road ", "id": 16, "lat": 1.29818877827984, "lon": 103.857814112006}, {"name": "Temasek Boulevard ", "id": 17, "lat": 1.2960690982143, "lon": 103.860014893734}, {"name": "Republic Boulevard ", "id": 18, "lat": 1.2959498515266994, "lon": 103.86245509676793}, {"name": "Buyong Road ", "id": 21, "lat": 1.30053526292666, "lon": 103.843117571359}, {"name": "Kramat Road ", "id": 22, "lat": 1.30160724766252, "lon": 103.842011763745}, {"name": "River Valley Road ", "id": 23, "lat": 1.29295672712952, "lon": 103.843858729201}, {"name": "Clemenceau Ave ", "id": 26, "lat": 1.29783327881683, "lon": 103.843762372922}, {"name": "Cairnhill Road ", "id": 27, "lat": 1.30566826762847, "lon": 103.837475783768}, {"name": "Central Boulevard ", "id": 28, "lat": 1.2747072751589077, "lon": 103.86004611447432}, {"name": "Maxwell Road ", "id": 29, "lat": 1.274603936926006, "lon": 103.85006998808403}, {"name": "ECP to City ", "id": 30, "lat": 1.29527, "lon": 103.8767}, {"name": "CTE after Braddell Road ", "id": 31, "lat": 1.33429776029387, "lon": 103.862319900553}, {"name": "PIE after Kallang Bahru on Woodsville Flyover ", "id": 32, "lat": 1.32632947958352, "lon": 103.870532957615}, {"name": "CTE from Serangoon Road ", "id": 33, "lat": 1.32910418687177, "lon": 103.864570397885}, {"name": "CTE from Balestier Road ", "id": 34, "lat": 1.31845461108959, "lon": 103.85211100924}, {"name": "CTE before Braddell Road ", "id": 35, "lat": 1.34630898728722, "lon": 103.859544595156}, {"name": "AYE to City before Alexandra Road ", "id": 36, "lat": 1.28740121634148, "lon": 103.795725547986}, {"name": "PIE to Changi after Adam Road Exit ", "id": 37, "lat": 1.33059597770337, "lon": 103.820069683038}, {"name": "Thomson Road after Toa Payoh Rise ", "id": 39, "lat": 1.33727678080648, "lon": 103.83729764431}, {"name": "Bendemeer Road ", "id": 40, "lat": 1.32735, "lon": 103.86842}, {"name": "Tuasbound AYE After North Buona Vista ", "id": 41, "lat": 1.30122, "lon": 103.77648}, {"name": "PIE into CTE ", "id": 42, "lat": 1.32897426417223, "lon": 103.86457345379}, {"name": "PIE slip road to Bendemeer Road ", "id": 45, "lat": 1.32622, "lon": 103.87041}, {"name": "CTE Northbound after PIE ", "id": 46, "lat": 1.33403731711135, "lon": 103.862158627957}, {"name": "Orchard Road after YMCA ", "id": 47, "lat": 1.2981570501332, "lon": 103.847854469115}, {"name": "Orchard Road after Handy Road ", "id": 48, "lat": 1.29872030869066, "lon": 103.847814431076}, {"name": "Fort Canning Tunnel ", "id": 49, "lat": 1.29776731983024, "lon": 103.846373081041}, {"name": "KPE Southbound after Defu Flyover ", "id": 50, "lat": 1.359544930873536, "lon": 103.90342026314386}, {"name": "CTE Northbound before exit to PIE ", "id": 51, "lat": 1.3261603219109, "lon": 103.860595050264}, {"name": "Upper Bt Timah Rd Southbound after Hume Ave ", "id": 55, "lat": 1.35326083005851, "lon": 103.769678291571}, {"name": "Kallang Bahru ", "id": 57, "lat": 1.32197490315522, "lon": 103.872905099004}, {"name": "Geylang Bahru ", "id": 58, "lat": 1.32036043005917, "lon": 103.871637787947}, {"name": "Upper Boon Keng Road ", "id": 59, "lat": 1.31351569478552, "lon": 103.870020071292}, {"name": "Eu Tong Seng Street at Central ", "id": 60, "lat": 1.28923743019218, "lon": 103.847470112542}, {"name": "New Bridge Road before Upper Circular Road ", "id": 61, "lat": 1.28930308488518, "lon": 103.847742558347}, {"name": "South Bridge Road before Upper Circular Road ", "id": 62, "lat": 1.28837230469095, "lon": 103.848870707579}, {"name": "Fullerton Road eastbound at Fullerton Hotel ", "id": 63, "lat": 1.28613925827856, "lon": 103.853618191657}, {"name": "Fullerton Road westbound at One Fullerton ", "id": 64, "lat": 1.28600751718741, "lon": 103.853716359531}, {"name": "PIE westbound before Eunos Link ", "id": 65, "lat": 1.32898761576127, "lon": 103.912442043008}, {"name": "Bayfront Ave towards Raffles Ave ", "id": 66, "lat": 1.2854876327193394, "lon": 103.86069874875204}, {"name": "PIE to CTE Northbound before Braddell Road ", "id": 67, "lat": 1.33379255155127, "lon": 103.862011304094}, {"name": "Bayfront Avenue towards Marina Boulevard ", "id": 69, "lat": 1.2854822325527882, "lon": 103.8608837858162}, {"name": "Geylang Road ", "id": 70, "lat": 1.3100764375399676, "lon": 103.87074880706605}, {"name": "Woodsville Tunnel ", "id": 71, "lat": 1.32567, "lon": 103.86804}, {"name": "Sheares Avenue towards Sheares Link ", "id": 72, "lat": 1.2842371, "lon": 103.8615171}, {"name": "ECP Eastbound before exit to KPE ", "id": 73, "lat": 1.29551, "lon": 103.87229}, {"name": "Citybound AYE After Jurong Town Hall ", "id": 74, "lat": 1.31633, "lon": 103.75874}, {"name": "MCE Westbound exit to Marina Coastal Drive ", "id": 90, "lat": 1.2750400109219449, "lon": 103.86738655113764}, {"name": "MCE Westbound before exit to Maxwell Road ", "id": 91, "lat": 1.2713490987813139, "lon": 103.85555839574523}, {"name": "Marina Boulevard to MCE Eastbound ", "id": 92, "lat": 1.2749698542983376, "lon": 103.86588748754765}, {"name": "MCE Eastbound before exit to Central Boulevard ", "id": 93, "lat": 1.2715461314821868, "lon": 103.85559594099307}]}